{
  "locations": [
    {
      "name": "ביצרון",
      "area": "תל אביב",
      "lat": 31.8021,
      "lon": 34.7864
    },
    {
      "name": "בן שמן מושב",
      "area": "תל אביב",
      "lat": 31.9514,
      "lon": 34.9203
    },
    {
      "name": "בת ים",
      "area": "תל אביב",
      "lat": 32.0132,
      "lon": 34.7502
    },
    {
      "name": "גבעתיים",
      "area": "תל אביב",
      "lat": 32.0722,
      "lon": 34.8101
    },
    {
      "name": "חולון",
      "area": "תל אביב",
      "lat": 32.0158,
      "lon": 34.7771
    },
    {
      "name": "כפר דניאל",
      "area": "תל אביב",
      "lat": 31.9072,
      "lon": 34.9042
    },
    {
      "name": "צפריה",
      "area": "תל אביב",
      "lat": 31.9961,
      "lon": 34.8453
    },
    {
      "name": "צריפין",
      "area": "תל אביב",
      "lat": 31.9542,
      "lon": 34.8403
    },
    {
      "name": "ראשון לציון",
      "area": "תל אביב",
      "lat": 31.973,
      "lon": 34.7925
    },
    {
      "name": "תל אביב-יפו",
      "area": "תל אביב",
      "lat": 32.0853,
      "lon": 34.7818
    },
    {
      "name": "אבו גוש",
      "area": "ירושלים",
      "lat": 31.8075,
      "lon": 35.1072
    },
    {
      "name": "אלון מורה",
      "area": "ירושלים",
      "lat": 32.2272,
      "lon": 35.3186
    },
    {
      "name": "אלון שבות",
      "area": "ירושלים",
      "lat": 31.6553,
      "lon": 35.1228
    },
    {
      "name": "בית אל",
      "area": "ירושלים",
      "lat": 31.9422,
      "lon": 35.2231
    },
    {
      "name": "בית חשמונאי",
      "area": "ירושלים",
      "lat": 31.9075,
      "lon": 34.9081
    },
    {
      "name": "בית מאיר",
      "area": "ירושלים",
      "lat": 31.7944,
      "lon": 35.0397
    },
    {
      "name": "בית שמש",
      "area": "ירושלים",
      "lat": 31.747,
      "lon": 34.9881
    },
    {
      "name": "ביתר עילית",
      "area": "ירושלים",
      "lat": 31.7011,
      "lon": 35.1133
    },
    {
      "name": "גלגל",
      "area": "ירושלים",
      "lat": 32.0003,
      "lon": 35.4539
    },
    {
      "name": "חשמונאים",
      "area": "ירושלים",
      "lat": 31.9164,
      "lon": 35.0133
    },
    {
      "name": "ירושלים",
      "area": "ירושלים",
      "lat": 31.7683,
      "lon": 35.2137
    },
    {
      "name": "כפר אדומים",
      "area": "ירושלים",
      "lat": 31.8261,
      "lon": 35.3528
    },
    {
      "name": "מבשרת ציון",
      "area": "ירושלים",
      "lat": 31.8031,
      "lon": 35.1464
    },
    {
      "name": "מעלה אדומים",
      "area": "ירושלים",
      "lat": 31.777,
      "lon": 35.3
    },
    {
      "name": "נווה מיכאל",
      "area": "ירושלים",
      "lat": 31.7106,
      "lon": 34.9656
    },
    {
      "name": "עזריה",
      "area": "ירושלים",
      "lat": 31.9069,
      "lon": 34.8719
    },
    {
      "name": "צרעה",
      "area": "ירושלים",
      "lat": 31.7744,
      "lon": 34.9317
    },
    {
      "name": "קליה",
      "area": "ירושלים",
      "lat": 31.7583,
      "lon": 35.4597
    },
    {
      "name": "קריית ארבע",
      "area": "ירושלים",
      "lat": 31.5283,
      "lon": 35.1189
    },
    {
      "name": "אלפי מנשה",
      "area": "השרון",
      "lat": 32.1764,
      "lon": 35.0203
    },
    {
      "name": "בית יהושע",
      "area": "השרון",
      "lat": 32.2536,
      "lon": 34.8781
    },
    {
      "name": "בית יצחק-שער חפר",
      "area": "השרון",
      "lat": 32.3214,
      "lon": 34.8814
    },
    {
      "name": "בת חפר",
      "area": "השרון",
      "lat": 32.3414,
      "lon": 35.0117
    },
    {
      "name": "המעפיל",
      "area": "השרון",
      "lat": 32.3722,
      "lon": 34.9658
    },
    {
      "name": "העוגן",
      "area": "השרון",
      "lat": 32.3606,
      "lon": 34.9286
    },
    {
      "name": "הרצליה",
      "area": "השרון",
      "lat": 32.1624,
      "lon": 34.8446
    },
    {
      "name": "חדרה",
      "area": "השרון",
      "lat": 32.434,
      "lon": 34.9197
    },
    {
      "name": "חרב לאת",
      "area": "השרון",
      "lat": 32.3853,
      "lon": 34.8875
    },
    {
      "name": "טירה",
      "area": "השרון",
      "lat": 32.235,
      "lon": 34.9297
    },
    {
      "name": "יקום",
      "area": "השרון",
      "lat": 32.2472,
      "lon": 34.8361
    },
    {
      "name": "כפר יונה",
      "area": "השרון",
      "lat": 32.3167,
      "lon": 34.9311
    },
    {
      "name": "מצר",
      "area": "השרון",
      "lat": 32.4433,
      "lon": 35.0392
    },
    {
      "name": "ניצני עוז",
      "area": "השרון",
      "lat": 32.3117,
      "lon": 35.0211
    },
    {
      "name": "נתניה",
      "area": "השרון",
      "lat": 32.3267,
      "lon": 34.8566
    },
    {
      "name": "עין שמר",
      "area": "השרון",
      "lat": 32.4533,
      "lon": 35.0131
    },
    {
      "name": "עמק חפר",
      "area": "השרון",
      "lat": 32.4111,
      "lon": 34.9389
    },
    {
      "name": "צור יגאל",
      "area": "השרון",
      "lat": 32.2156,
      "lon": 34.9864
    },
    {
      "name": "קדימה",
      "area": "השרון",
      "lat": 32.2764,
      "lon": 34.915
    },
    {
      "name": "קלנסווה",
      "area": "השרון",
      "lat": 32.2875,
      "lon": 35.0294
    },
    {
      "name": "רמת השרון",
      "area": "השרון",
      "lat": 32.1464,
      "lon": 34.8383
    },
    {
      "name": "רעננה",
      "area": "השרון",
      "lat": 32.185,
      "lon": 34.8714
    },
    {
      "name": "שניר",
      "area": "השרון",
      "lat": 33.2389,
      "lon": 35.6842
    },
    {
      "name": "תל מונד",
      "area": "השרון",
      "lat": 32.2542,
      "lon": 34.9194
    },
    {
      "name": "אור עקיבא",
      "area": "הצפון",
      "lat": 32.4933,
      "lon": 34.9178
    },
    {
      "name": "אל-רום",
      "area": "הצפון",
      "lat": 33.1811,
      "lon": 35.7703
    },
    {
      "name": "אפיקים",
      "area": "הצפון",
      "lat": 32.6797,
      "lon": 35.5769
    },
    {
      "name": "ברק",
      "area": "הצפון",
      "lat": 32.5539,
      "lon": 35.2936
    },
    {
      "name": "גינוסר",
      "area": "הצפון",
      "lat": 32.8464,
      "lon": 35.5236
    },
    {
      "name": "גשר",
      "area": "הצפון",
      "lat": 32.6189,
      "lon": 35.5494
    },
    {
      "name": "דברת",
      "area": "הצפון",
      "lat": 32.6369,
      "lon": 35.3725
    },
    {
      "name": "דליה",
      "area": "הצפון",
      "lat": 32.5864,
      "lon": 35.0769
    },
    {
      "name": "דלתון",
      "area": "הצפון",
      "lat": 33.0031,
      "lon": 35.4853
    },
    {
      "name": "הסוללים",
      "area": "הצפון",
      "lat": 32.7594,
      "lon": 35.2344
    },
    {
      "name": "זכרון יעקב",
      "area": "הצפון",
      "lat": 32.5733,
      "lon": 34.9511
    },
    {
      "name": "טבריה",
      "area": "הצפון",
      "lat": 32.7922,
      "lon": 35.5312
    },
    {
      "name": "טובא-זנגריה",
      "area": "הצפון",
      "lat": 32.9739,
      "lon": 35.5947
    },
    {
      "name": "יפיע",
      "area": "הצפון",
      "lat": 32.6842,
      "lon": 35.2753
    },
    {
      "name": "יקנעם עילית",
      "area": "הצפון",
      "lat": 32.6633,
      "lon": 35.1103
    },
    {
      "name": "כנרת קבוצה",
      "area": "הצפון",
      "lat": 32.7094,
      "lon": 35.5728
    },
    {
      "name": "כפר מנדא",
      "area": "הצפון",
      "lat": 32.8081,
      "lon": 35.2678
    },
    {
      "name": "כפר תבור",
      "area": "הצפון",
      "lat": 32.6842,
      "lon": 35.4208
    },
    {
      "name": "מזרע",
      "area": "הצפון",
      "lat": 32.6622,
      "lon": 35.3
    },
    {
      "name": "מחניים",
      "area": "הצפון",
      "lat": 32.9864,
      "lon": 35.5714
    },
    {
      "name": "מעוז חיים",
      "area": "הצפון",
      "lat": 32.4942,
      "lon": 35.5447
    },
    {
      "name": "מעלה גלבוע",
      "area": "הצפון",
      "lat": 32.4644,
      "lon": 35.4192
    },
    {
      "name": "מרחביה מושב",
      "area": "הצפון",
      "lat": 32.6072,
      "lon": 35.3117
    },
    {
      "name": "משמר העמק",
      "area": "הצפון",
      "lat": 32.6106,
      "lon": 35.1403
    },
    {
      "name": "נוף הגליל",
      "area": "הצפון",
      "lat": 32.7066,
      "lon": 35.3342
    },
    {
      "name": "נחשולים",
      "area": "הצפון",
      "lat": 32.6144,
      "lon": 34.9222
    },
    {
      "name": "ניר דוד",
      "area": "הצפון",
      "lat": 32.5028,
      "lon": 35.4589
    },
    {
      "name": "נצרת",
      "area": "הצפון",
      "lat": 32.7019,
      "lon": 35.3033
    },
    {
      "name": "סח'נין",
      "area": "הצפון",
      "lat": 32.8625,
      "lon": 35.3039
    },
    {
      "name": "עין דור",
      "area": "הצפון",
      "lat": 32.6511,
      "lon": 35.4181
    },
    {
      "name": "עין חרוד",
      "area": "הצפון",
      "lat": 32.5511,
      "lon": 35.3917
    },
    {
      "name": "עפולה",
      "area": "הצפון",
      "lat": 32.61,
      "lon": 35.2892
    },
    {
      "name": "פרדס חנה",
      "area": "הצפון",
      "lat": 32.4736,
      "lon": 34.9858
    },
    {
      "name": "צמח",
      "area": "הצפון",
      "lat": 32.7058,
      "lon": 35.5847
    },
    {
      "name": "צפת",
      "area": "הצפון",
      "lat": 32.9658,
      "lon": 35.4944
    },
    {
      "name": "קיסריה",
      "area": "הצפון",
      "lat": 32.5,
      "lon": 34.9
    },
    {
      "name": "קצרין",
      "area": "הצפון",
      "lat": 32.9928,
      "lon": 35.6928
    },
    {
      "name": "קריית אתא",
      "area": "הצפון",
      "lat": 32.8011,
      "lon": 35.1067
    },
    {
      "name": "קריית ים",
      "area": "הצפון",
      "lat": 32.8447,
      "lon": 35.0642
    },
    {
      "name": "ראש פינה",
      "area": "הצפון",
      "lat": 32.9719,
      "lon": 35.5406
    },
    {
      "name": "רמות",
      "area": "הצפון",
      "lat": 32.8422,
      "lon": 35.6692
    },
    {
      "name": "שדות ים",
      "area": "הצפון",
      "lat": 32.4842,
      "lon": 34.8872
    },
    {
      "name": "שלוחות",
      "area": "הצפון",
      "lat": 32.4764,
      "lon": 35.4764
    },
    {
      "name": "שמיר",
      "area": "הצפון",
      "lat": 33.1517,
      "lon": 35.6217
    },
    {
      "name": "שער הגולן",
      "area": "הצפון",
      "lat": 32.6914,
      "lon": 35.6025
    },
    {
      "name": "שקד",
      "area": "הצפון",
      "lat": 32.4839,
      "lon": 35.1583
    },
    {
      "name": "אבן יהודה",
      "area": "המרכז",
      "lat": 32.2694,
      "lon": 34.8878
    },
    {
      "name": "אור יהודה",
      "area": "המרכז",
      "lat": 32.0306,
      "lon": 34.8517
    },
    {
      "name": "אורנית",
      "area": "המרכז",
      "lat": 32.1325,
      "lon": 35.0169
    },
    {
      "name": "אלעד",
      "area": "המרכז",
      "lat": 32.0519,
      "lon": 34.9517
    },
    {
      "name": "ארז",
      "area": "המרכז",
      "lat": 31.5606,
      "lon": 34.5653
    },
    {
      "name": "אריאל",
      "area": "המרכז",
      "lat": 32.1053,
      "lon": 35.1744
    },
    {
      "name": "בארות יצחק",
      "area": "המרכז",
      "lat": 32.0319,
      "lon": 34.8967
    },
    {
      "name": "בית אריה",
      "area": "המרכז",
      "lat": 32.0411,
      "lon": 35.0489
    },
    {
      "name": "בית גוברין",
      "area": "המרכז",
      "lat": 31.6117,
      "lon": 34.8911
    },
    {
      "name": "בית דגן",
      "area": "המרכז",
      "lat": 31.9961,
      "lon": 34.8317
    },
    {
      "name": "בית רבן",
      "area": "המרכז",
      "lat": 31.8153,
      "lon": 34.7661
    },
    {
      "name": "בני ברק",
      "area": "המרכז",
      "lat": 32.0833,
      "lon": 34.8333
    },
    {
      "name": "בני עטרות",
      "area": "המרכז",
      "lat": 32.0164,
      "lon": 34.8975
    },
    {
      "name": "ברקן",
      "area": "המרכז",
      "lat": 32.1158,
      "lon": 35.1169
    },
    {
      "name": "גבעת השלושה",
      "area": "המרכז",
      "lat": 32.0967,
      "lon": 34.9086
    },
    {
      "name": "גבעת שמואל",
      "area": "המרכז",
      "lat": 32.0772,
      "lon": 34.8483
    },
    {
      "name": "געתון",
      "area": "המרכז",
      "lat": 33.0039,
      "lon": 35.2158
    },
    {
      "name": "הוד השרון",
      "area": "המרכז",
      "lat": 32.155,
      "lon": 34.8931
    },
    {
      "name": "יהוד",
      "area": "המרכז",
      "lat": 32.0336,
      "lon": 34.8867
    },
    {
      "name": "יזרעאל",
      "area": "המרכז",
      "lat": 32.5594,
      "lon": 35.3267
    },
    {
      "name": "כפר הירוק",
      "area": "המרכז",
      "lat": 32.1311,
      "lon": 34.8219
    },
    {
      "name": "כפר סבא",
      "area": "המרכז",
      "lat": 32.1753,
      "lon": 34.9067
    },
    {
      "name": "כפר קאסם",
      "area": "המרכז",
      "lat": 32.1136,
      "lon": 34.9758
    },
    {
      "name": "מעלה החמישה",
      "area": "המרכז",
      "lat": 31.8158,
      "lon": 35.1194
    },
    {
      "name": "נחשונים",
      "area": "המרכז",
      "lat": 32.0622,
      "lon": 34.9392
    },
    {
      "name": "נתב\"ג",
      "area": "המרכז",
      "lat": 31.9975,
      "lon": 34.885
    },
    {
      "name": "עינת",
      "area": "המרכז",
      "lat": 32.0767,
      "lon": 34.9367
    },
    {
      "name": "עלי",
      "area": "המרכז",
      "lat": 32.0678,
      "lon": 35.2678
    },
    {
      "name": "פתח תקווה",
      "area": "המרכז",
      "lat": 32.0872,
      "lon": 34.8814
    },
    {
      "name": "ראש העין",
      "area": "המרכז",
      "lat": 32.0956,
      "lon": 34.9567
    },
    {
      "name": "רמלה",
      "area": "המרכז",
      "lat": 31.9272,
      "lon": 34.8625
    },
    {
      "name": "רמת גן",
      "area": "המרכז",
      "lat": 32.0684,
      "lon": 34.8247
    },
    {
      "name": "רנתיה",
      "area": "המרכז",
      "lat": 32.0294,
      "lon": 34.9097
    },
    {
      "name": "שוהם",
      "area": "המרכז",
      "lat": 31.9511,
      "lon": 34.9453
    },
    {
      "name": "שפיים",
      "area": "המרכז",
      "lat": 32.2242,
      "lon": 34.8147
    },
    {
      "name": "תל השומר",
      "area": "המרכז",
      "lat": 32.0469,
      "lon": 34.8422
    },
    {
      "name": "אושה",
      "area": "המפרץ",
      "lat": 32.8058,
      "lon": 35.1119
    },
    {
      "name": "איילת השחר",
      "area": "המפרץ",
      "lat": 33.0231,
      "lon": 35.5786
    },
    {
      "name": "אילון",
      "area": "המפרץ",
      "lat": 33.0631,
      "lon": 35.2197
    },
    {
      "name": "אשרת",
      "area": "המפרץ",
      "lat": 32.9664,
      "lon": 35.1667
    },
    {
      "name": "בית זרע",
      "area": "המפרץ",
      "lat": 32.6897,
      "lon": 35.5714
    },
    {
      "name": "בית שאן",
      "area": "המפרץ",
      "lat": 32.4972,
      "lon": 35.4975
    },
    {
      "name": "בצת",
      "area": "המפרץ",
      "lat": 33.0769,
      "lon": 35.1206
    },
    {
      "name": "גבע",
      "area": "המפרץ",
      "lat": 32.5592,
      "lon": 35.3725
    },
    {
      "name": "גן יבנה",
      "area": "המפרץ",
      "lat": 31.7842,
      "lon": 34.7117
    },
    {
      "name": "הגושרים",
      "area": "המפרץ",
      "lat": 33.2208,
      "lon": 35.62
    },
    {
      "name": "חולתה",
      "area": "המפרץ",
      "lat": 33.0486,
      "lon": 35.6033
    },
    {
      "name": "חיפה",
      "area": "המפרץ",
      "lat": 32.794,
      "lon": 34.9896
    },
    {
      "name": "טירת כרמל",
      "area": "המפרץ",
      "lat": 32.7628,
      "lon": 34.9725
    },
    {
      "name": "יפתח",
      "area": "המפרץ",
      "lat": 33.1256,
      "lon": 35.5497
    },
    {
      "name": "יראון",
      "area": "המפרץ",
      "lat": 33.0761,
      "lon": 35.4578
    },
    {
      "name": "ירכא",
      "area": "המפרץ",
      "lat": 32.9558,
      "lon": 35.1883
    },
    {
      "name": "כפר בלום",
      "area": "המפרץ",
      "lat": 33.175,
      "lon": 35.6083
    },
    {
      "name": "כפר ברוך",
      "area": "המפרץ",
      "lat": 32.6469,
      "lon": 35.2153
    },
    {
      "name": "כפר גלעדי",
      "area": "המפרץ",
      "lat": 33.2425,
      "lon": 35.5767
    },
    {
      "name": "כפר יאסיף",
      "area": "המפרץ",
      "lat": 32.9539,
      "lon": 35.165
    },
    {
      "name": "כרמיאל",
      "area": "המפרץ",
      "lat": 32.9197,
      "lon": 35.2897
    },
    {
      "name": "לוחמי הגיטאות",
      "area": "המפרץ",
      "lat": 32.9592,
      "lon": 35.0939
    },
    {
      "name": "מגדים",
      "area": "המפרץ",
      "lat": 32.7314,
      "lon": 34.9458
    },
    {
      "name": "מגדל העמק",
      "area": "המפרץ",
      "lat": 32.6736,
      "lon": 35.2411
    },
    {
      "name": "מגדל תפן",
      "area": "המפרץ",
      "lat": 32.9792,
      "lon": 35.2789
    },
    {
      "name": "מירון",
      "area": "המפרץ",
      "lat": 32.9825,
      "lon": 35.4403
    },
    {
      "name": "מעונה",
      "area": "המפרץ",
      "lat": 32.9972,
      "lon": 35.2472
    },
    {
      "name": "מעלות-תרשיחא",
      "area": "המפרץ",
      "lat": 33.0136,
      "lon": 35.2694
    },
    {
      "name": "מצובה",
      "area": "המפרץ",
      "lat": 33.0644,
      "lon": 35.1611
    },
    {
      "name": "מרום גולן",
      "area": "המפרץ",
      "lat": 33.1311,
      "lon": 35.7797
    },
    {
      "name": "משגב",
      "area": "המפרץ",
      "lat": 32.8406,
      "lon": 35.2631
    },
    {
      "name": "נאות מרדכי",
      "area": "המפרץ",
      "lat": 33.1619,
      "lon": 35.6019
    },
    {
      "name": "נהרייה",
      "area": "המפרץ",
      "lat": 33.0078,
      "lon": 35.0931
    },
    {
      "name": "נשר",
      "area": "המפרץ",
      "lat": 32.7636,
      "lon": 35.0406
    },
    {
      "name": "סאסא",
      "area": "המפרץ",
      "lat": 33.0294,
      "lon": 35.3922
    },
    {
      "name": "עכו",
      "area": "המפרץ",
      "lat": 32.9278,
      "lon": 35.0817
    },
    {
      "name": "קריית מוצקין",
      "area": "המפרץ",
      "lat": 32.84,
      "lon": 35.0747
    },
    {
      "name": "קריית שמונה",
      "area": "המפרץ",
      "lat": 33.2072,
      "lon": 35.5722
    },
    {
      "name": "קרית ביאליק",
      "area": "המפרץ",
      "lat": 32.8336,
      "lon": 35.0933
    },
    {
      "name": "קרית חיים",
      "area": "המפרץ",
      "lat": 32.8258,
      "lon": 35.0681
    },
    {
      "name": "רגבה",
      "area": "המפרץ",
      "lat": 32.9839,
      "lon": 35.0975
    },
    {
      "name": "רכסים",
      "area": "המפרץ",
      "lat": 32.7486,
      "lon": 35.1053
    },
    {
      "name": "רמת יוחנן",
      "area": "המפרץ",
      "lat": 32.8056,
      "lon": 35.1278
    },
    {
      "name": "שלומי",
      "area": "המפרץ",
      "lat": 33.0767,
      "lon": 35.1469
    },
    {
      "name": "שפרעם",
      "area": "המפרץ",
      "lat": 32.8061,
      "lon": 35.1711
    },
    {
      "name": "אחיסמך",
      "area": "הדרום",
      "lat": 31.9333,
      "lon": 34.9086
    },
    {
      "name": "אלונים",
      "area": "הדרום",
      "lat": 32.7153,
      "lon": 35.1417
    },
    {
      "name": "בית חלקיה",
      "area": "הדרום",
      "lat": 31.7964,
      "lon": 34.8239
    },
    {
      "name": "בית קמה",
      "area": "הדרום",
      "lat": 31.4489,
      "lon": 34.7619
    },
    {
      "name": "בני דרור",
      "area": "הדרום",
      "lat": 32.2536,
      "lon": 34.8969
    },
    {
      "name": "גבעת ברנר",
      "area": "הדרום",
      "lat": 31.8647,
      "lon": 34.8197
    },
    {
      "name": "גדרה",
      "area": "הדרום",
      "lat": 31.8122,
      "lon": 34.8256
    },
    {
      "name": "חולדה",
      "area": "הדרום",
      "lat": 31.8314,
      "lon": 34.8856
    },
    {
      "name": "חצב",
      "area": "הדרום",
      "lat": 31.7761,
      "lon": 34.7867
    },
    {
      "name": "יבנה",
      "area": "הדרום",
      "lat": 31.8889,
      "lon": 34.7439
    },
    {
      "name": "ישרש",
      "area": "הדרום",
      "lat": 31.9167,
      "lon": 34.8436
    },
    {
      "name": "כפר עזה",
      "area": "הדרום",
      "lat": 31.4644,
      "lon": 34.4983
    },
    {
      "name": "מודיעין",
      "area": "הדרום",
      "lat": 31.9078,
      "lon": 35.0078
    },
    {
      "name": "מודיעין עילית",
      "area": "הדרום",
      "lat": 31.9336,
      "lon": 35.0397
    },
    {
      "name": "מצליח",
      "area": "הדרום",
      "lat": 31.9158,
      "lon": 34.8569
    },
    {
      "name": "נגבה",
      "area": "הדרום",
      "lat": 31.6617,
      "lon": 34.6789
    },
    {
      "name": "נס ציונה",
      "area": "הדרום",
      "lat": 31.9286,
      "lon": 34.7983
    },
    {
      "name": "סער",
      "area": "הדרום",
      "lat": 33.0189,
      "lon": 35.1103
    },
    {
      "name": "קבוצת יבנה",
      "area": "הדרום",
      "lat": 31.8183,
      "lon": 34.7553
    },
    {
      "name": "רחובות",
      "area": "הדרום",
      "lat": 31.8928,
      "lon": 34.8114
    },
    {
      "name": "שילת",
      "area": "הדרום",
      "lat": 31.9144,
      "lon": 35.0117
    },
    {
      "name": "בית גמליאל",
      "area": "הדרום",
      "lat": 31.8542,
      "lon": 34.7733
    },
    {
      "name": "אופקים",
      "area": "אשדוד",
      "lat": 31.3142,
      "lon": 34.6214
    },
    {
      "name": "אור הנר",
      "area": "אשדוד",
      "lat": 31.5564,
      "lon": 34.6
    },
    {
      "name": "אילות",
      "area": "אשדוד",
      "lat": 29.5803,
      "lon": 34.9606
    },
    {
      "name": "אילת",
      "area": "אשדוד",
      "lat": 29.5577,
      "lon": 34.9519
    },
    {
      "name": "אירוס",
      "area": "אשדוד",
      "lat": 31.9367,
      "lon": 34.8081
    },
    {
      "name": "אשדוד",
      "area": "אשדוד",
      "lat": 31.8044,
      "lon": 34.6553
    },
    {
      "name": "אשקלון",
      "area": "אשדוד",
      "lat": 31.6667,
      "lon": 34.5714
    },
    {
      "name": "באר טוביה",
      "area": "אשדוד",
      "lat": 31.7411,
      "lon": 34.7233
    },
    {
      "name": "באר יעקב",
      "area": "אשדוד",
      "lat": 31.9419,
      "lon": 34.8361
    },
    {
      "name": "באר שבע",
      "area": "אשדוד",
      "lat": 31.2458,
      "lon": 34.7925
    },
    {
      "name": "בית חנן",
      "area": "אשדוד",
      "lat": 31.9264,
      "lon": 34.7719
    },
    {
      "name": "בני דרום",
      "area": "אשדוד",
      "lat": 31.8317,
      "lon": 34.6864
    },
    {
      "name": "בני עי\"ש",
      "area": "אשדוד",
      "lat": 31.7947,
      "lon": 34.7578
    },
    {
      "name": "ברוש",
      "area": "אשדוד",
      "lat": 31.3736,
      "lon": 34.6469
    },
    {
      "name": "גבעתי",
      "area": "אשדוד",
      "lat": 31.6881,
      "lon": 34.6881
    },
    {
      "name": "גרופית",
      "area": "אשדוד",
      "lat": 29.9344,
      "lon": 35.0606
    },
    {
      "name": "דבירה",
      "area": "אשדוד",
      "lat": 31.4117,
      "lon": 34.8217
    },
    {
      "name": "דימונה",
      "area": "אשדוד",
      "lat": 31.0667,
      "lon": 35.0333
    },
    {
      "name": "חלץ",
      "area": "אשדוד",
      "lat": 31.6217,
      "lon": 34.6297
    },
    {
      "name": "חמדיה",
      "area": "אשדוד",
      "lat": 32.5181,
      "lon": 35.5186
    },
    {
      "name": "חצור-אשדוד",
      "area": "אשדוד",
      "lat": 31.7686,
      "lon": 34.72
    },
    {
      "name": "חצרים",
      "area": "אשדוד",
      "lat": 31.2403,
      "lon": 34.7003
    },
    {
      "name": "יטבתה",
      "area": "אשדוד",
      "lat": 29.8944,
      "lon": 35.0603
    },
    {
      "name": "ינון",
      "area": "אשדוד",
      "lat": 31.7583,
      "lon": 34.7508
    },
    {
      "name": "ירוחם",
      "area": "אשדוד",
      "lat": 30.9881,
      "lon": 34.9281
    },
    {
      "name": "כנות",
      "area": "אשדוד",
      "lat": 31.7875,
      "lon": 34.7731
    },
    {
      "name": "כפר חב\"ד",
      "area": "אשדוד",
      "lat": 31.9917,
      "lon": 34.8519
    },
    {
      "name": "כפר מנחם",
      "area": "אשדוד",
      "lat": 31.7511,
      "lon": 34.8156
    },
    {
      "name": "לבון",
      "area": "אשדוד",
      "lat": 32.9361,
      "lon": 35.2444
    },
    {
      "name": "להב",
      "area": "אשדוד",
      "lat": 31.3814,
      "lon": 34.8714
    },
    {
      "name": "לוד",
      "area": "אשדוד",
      "lat": 31.9467,
      "lon": 34.8878
    },
    {
      "name": "לכיש",
      "area": "אשדוד",
      "lat": 31.5658,
      "lon": 34.8469
    },
    {
      "name": "מסמיה",
      "area": "אשדוד",
      "lat": 31.7683,
      "lon": 34.8017
    },
    {
      "name": "משאבי שדה",
      "area": "אשדוד",
      "lat": 31.0039,
      "lon": 34.7867
    },
    {
      "name": "משואות יצחק",
      "area": "אשדוד",
      "lat": 31.7061,
      "lon": 34.7231
    },
    {
      "name": "משמר הנגב",
      "area": "אשדוד",
      "lat": 31.3417,
      "lon": 34.7214
    },
    {
      "name": "ניצנים",
      "area": "אשדוד",
      "lat": 31.7289,
      "lon": 34.6408
    },
    {
      "name": "ניר עקיבא",
      "area": "אשדוד",
      "lat": 31.455,
      "lon": 34.6756
    },
    {
      "name": "נתיבות",
      "area": "אשדוד",
      "lat": 31.4172,
      "lon": 34.5886
    },
    {
      "name": "סמר",
      "area": "אשדוד",
      "lat": 29.8317,
      "lon": 35.0211
    },
    {
      "name": "סעד",
      "area": "אשדוד",
      "lat": 31.47,
      "lon": 34.5317
    },
    {
      "name": "עומר",
      "area": "אשדוד",
      "lat": 31.2647,
      "lon": 34.8458
    },
    {
      "name": "עין בוקק",
      "area": "אשדוד",
      "lat": 31.2,
      "lon": 35.3625
    },
    {
      "name": "עין הבשור",
      "area": "אשדוד",
      "lat": 31.2842,
      "lon": 34.4667
    },
    {
      "name": "עין יהב",
      "area": "אשדוד",
      "lat": 30.6594,
      "lon": 35.2039
    },
    {
      "name": "עלומים",
      "area": "אשדוד",
      "lat": 31.4514,
      "lon": 34.5261
    },
    {
      "name": "עמיעוז",
      "area": "אשדוד",
      "lat": 31.2336,
      "lon": 34.4286
    },
    {
      "name": "פלמחים",
      "area": "אשדוד",
      "lat": 31.9317,
      "lon": 34.7486
    },
    {
      "name": "פרי גן",
      "area": "אשדוד",
      "lat": 31.2225,
      "lon": 34.3986
    },
    {
      "name": "צאלים",
      "area": "אשדוד",
      "lat": 31.2053,
      "lon": 34.5333
    },
    {
      "name": "צוחר",
      "area": "אשדוד",
      "lat": 31.2464,
      "lon": 34.4292
    },
    {
      "name": "קטורה",
      "area": "אשדוד",
      "lat": 29.9678,
      "lon": 35.0617
    },
    {
      "name": "קרית גת",
      "area": "אשדוד",
      "lat": 31.6083,
      "lon": 34.7642
    },
    {
      "name": "רעים",
      "area": "אשדוד",
      "lat": 31.3861,
      "lon": 34.4606
    },
    {
      "name": "שדרות",
      "area": "אשדוד",
      "lat": 31.5217,
      "lon": 34.5956
    },
    {
      "name": "שחר",
      "area": "אשדוד",
      "lat": 31.6433,
      "lon": 34.7297
    },
    {
      "name": "שער הנגב",
      "area": "אשדוד",
      "lat": 31.4886,
      "lon": 34.5947
    },
    {
      "name": "שרשרת",
      "area": "אשדוד",
      "lat": 31.4253,
      "lon": 34.6194
    },
    {
      "name": "תימורים",
      "area": "אשדוד",
      "lat": 31.7336,
      "lon": 34.7681
    },
    {
      "name": "תל שבע",
      "area": "אשדוד",
      "lat": 31.2469,
      "lon": 34.8517
    },
    {
      "name": "חבל מודיעין",
      "area": "הדרום",
      "lat": 31.9483,
      "lon": 34.9442
    }
  ],
  "failed": []
}