{
  "locations": [
    {
      "name": "ביצרון",
      "area": "תל אביב",
      "lat": 31.7950527,
      "lon": 34.7392791
    },
    {
      "name": "בת ים",
      "area": "תל אביב",
      "lat": 32.0154565,
      "lon": 34.7505283
    },
    {
      "name": "גבעתיים",
      "area": "תל אביב",
      "lat": 32.0729606,
      "lon": 34.8113279
    },
    {
      "name": "חולון",
      "area": "תל אביב",
      "lat": 32.015999,
      "lon": 34.7859564
    },
    {
      "name": "כפר דניאל",
      "area": "תל אביב",
      "lat": 31.9332996,
      "lon": 34.9326218
    },
    {
      "name": "צפריה",
      "area": "תל אביב",
      "lat": 32.0052557,
      "lon": 34.8550969
    },
    {
      "name": "צריפין",
      "area": "תל אביב",
      "lat": 32.0566326,
      "lon": 34.7665071
    },
    {
      "name": "ראשון לציון",
      "area": "תל אביב",
      "lat": 31.9635712,
      "lon": 34.8101149
    },
    {
      "name": "תל אביב-יפו",
      "area": "תל אביב",
      "lat": 32.0852997,
      "lon": 34.7818064
    },
    {
      "name": "אבו גוש",
      "area": "ירושלים",
      "lat": 31.806353,
      "lon": 35.1088651
    },
    {
      "name": "בית אל",
      "area": "ירושלים",
      "lat": 32.1180726,
      "lon": 34.8385721
    },
    {
      "name": "בית חשמונאי",
      "area": "ירושלים",
      "lat": 31.8889401,
      "lon": 34.9165448
    },
    {
      "name": "בית מאיר",
      "area": "ירושלים",
      "lat": 31.7938835,
      "lon": 35.0360826
    },
    {
      "name": "בית שמש",
      "area": "ירושלים",
      "lat": 31.746214,
      "lon": 34.9886825
    },
    {
      "name": "ביתר עילית",
      "area": "ירושלים",
      "lat": 31.7163153,
      "lon": 35.120091
    },
    {
      "name": "גלגל",
      "area": "ירושלים",
      "lat": 32.7958801,
      "lon": 34.9833524
    },
    {
      "name": "חשמונאים",
      "area": "ירושלים",
      "lat": 32.0823307,
      "lon": 34.8113141
    },
    {
      "name": "ירושלים",
      "area": "ירושלים",
      "lat": 31.7788472,
      "lon": 35.2257856
    },
    {
      "name": "מבשרת ציון",
      "area": "ירושלים",
      "lat": 31.8039508,
      "lon": 35.1570251
    },
    {
      "name": "מעלה אדומים",
      "area": "ירושלים",
      "lat": 31.802886,
      "lon": 35.2526186
    },
    {
      "name": "נווה מיכאל",
      "area": "ירושלים",
      "lat": 31.6729774,
      "lon": 35.0059119
    },
    {
      "name": "עזריה",
      "area": "ירושלים",
      "lat": 31.8904994,
      "lon": 34.9115676
    },
    {
      "name": "צרעה",
      "area": "ירושלים",
      "lat": 31.7627391,
      "lon": 34.9686245
    },
    {
      "name": "קליה",
      "area": "ירושלים",
      "lat": 32.0244654,
      "lon": 34.8639652
    },
    {
      "name": "בית יהושע",
      "area": "השרון",
      "lat": 32.2626037,
      "lon": 34.860233
    },
    {
      "name": "בית יצחק-שער חפר",
      "area": "השרון",
      "lat": 32.339106,
      "lon": 34.8916059
    },
    {
      "name": "בת חפר",
      "area": "השרון",
      "lat": 32.3345015,
      "lon": 35.012351
    },
    {
      "name": "המעפיל",
      "area": "השרון",
      "lat": 32.3783322,
      "lon": 34.9839792
    },
    {
      "name": "העוגן",
      "area": "השרון",
      "lat": 32.3619422,
      "lon": 34.9231606
    },
    {
      "name": "הרצליה",
      "area": "השרון",
      "lat": 32.1676842,
      "lon": 34.8308279
    },
    {
      "name": "חדרה",
      "area": "השרון",
      "lat": 32.440742,
      "lon": 34.9401053
    },
    {
      "name": "חרב לאת",
      "area": "השרון",
      "lat": 32.4012716,
      "lon": 34.9170982
    },
    {
      "name": "טירה",
      "area": "השרון",
      "lat": 32.2330226,
      "lon": 34.9504196
    },
    {
      "name": "יקום",
      "area": "השרון",
      "lat": 32.2485734,
      "lon": 34.842087
    },
    {
      "name": "כפר יונה",
      "area": "השרון",
      "lat": 32.314504,
      "lon": 34.9321169
    },
    {
      "name": "מצר",
      "area": "השרון",
      "lat": 32.4404285,
      "lon": 35.0476791
    },
    {
      "name": "ניצני עוז",
      "area": "השרון",
      "lat": 32.3054855,
      "lon": 35.0048861
    },
    {
      "name": "נתניה",
      "area": "השרון",
      "lat": 32.3072299,
      "lon": 34.8628224
    },
    {
      "name": "עין שמר",
      "area": "השרון",
      "lat": 32.4629224,
      "lon": 35.0073711
    },
    {
      "name": "פארק תעשיות עמק חפר",
      "area": "השרון",
      "lat": 32.4013587,
      "lon": 34.8965542
    },
    {
      "name": "צור יגאל",
      "area": "השרון",
      "lat": 32.2149108,
      "lon": 34.9891577
    },
    {
      "name": "קדימה",
      "area": "השרון",
      "lat": 32.2764459,
      "lon": 34.9125436
    },
    {
      "name": "קלנסווה",
      "area": "השרון",
      "lat": 32.2848603,
      "lon": 34.9801701
    },
    {
      "name": "רמת השרון",
      "area": "השרון",
      "lat": 32.1396795,
      "lon": 34.8358517
    },
    {
      "name": "רעננה",
      "area": "השרון",
      "lat": 32.1860244,
      "lon": 34.8678359
    },
    {
      "name": "שניר",
      "area": "השרון",
      "lat": 33.2410034,
      "lon": 35.6781947
    },
    {
      "name": "תל מונד",
      "area": "השרון",
      "lat": 32.2536471,
      "lon": 34.9185387
    },
    {
      "name": "אור עקיבא",
      "area": "הצפון",
      "lat": 32.5090151,
      "lon": 34.9195677
    },
    {
      "name": "אל-רום",
      "area": "הצפון",
      "lat": 33.1796457,
      "lon": 35.7721224
    },
    {
      "name": "אפיקים",
      "area": "הצפון",
      "lat": 32.681369,
      "lon": 35.5783318
    },
    {
      "name": "ברק",
      "area": "הצפון",
      "lat": 32.5424671,
      "lon": 35.2653811
    },
    {
      "name": "גינוסר",
      "area": "הצפון",
      "lat": 32.8476404,
      "lon": 35.5236258
    },
    {
      "name": "גשר",
      "area": "הצפון",
      "lat": 32.6208275,
      "lon": 35.5516051
    },
    {
      "name": "דברת",
      "area": "הצפון",
      "lat": 32.6479447,
      "lon": 35.3505185
    },
    {
      "name": "דליה",
      "area": "הצפון",
      "lat": 32.6922393,
      "lon": 35.0482785
    },
    {
      "name": "דלתון",
      "area": "הצפון",
      "lat": 33.0166712,
      "lon": 35.4891906
    },
    {
      "name": "הסוללים",
      "area": "הצפון",
      "lat": 32.751099,
      "lon": 35.238324
    },
    {
      "name": "זכרון יעקב",
      "area": "הצפון",
      "lat": 32.573042,
      "lon": 34.9512207
    },
    {
      "name": "טבריה",
      "area": "הצפון",
      "lat": 32.7938522,
      "lon": 35.5328566
    },
    {
      "name": "טובא-זנגריה",
      "area": "הצפון",
      "lat": 32.9663198,
      "lon": 35.5944243
    },
    {
      "name": "יפיע",
      "area": "הצפון",
      "lat": 32.6842227,
      "lon": 35.2754584
    },
    {
      "name": "יקנעם עילית",
      "area": "הצפון",
      "lat": 32.6480601,
      "lon": 35.0943545
    },
    {
      "name": "כפר מנדא",
      "area": "הצפון",
      "lat": 32.8114088,
      "lon": 35.259756
    },
    {
      "name": "כפר תבור",
      "area": "הצפון",
      "lat": 32.6878053,
      "lon": 35.4204202
    },
    {
      "name": "מזרע",
      "area": "הצפון",
      "lat": 32.6509756,
      "lon": 35.2861087
    },
    {
      "name": "מחניים",
      "area": "הצפון",
      "lat": 32.9886405,
      "lon": 35.570735
    },
    {
      "name": "מעוז חיים",
      "area": "הצפון",
      "lat": 32.4933804,
      "lon": 35.5512649
    },
    {
      "name": "מעלה גלבוע",
      "area": "הצפון",
      "lat": 32.4780173,
      "lon": 35.4174978
    },
    {
      "name": "מרחביה (מושב)",
      "area": "הצפון",
      "lat": 32.6024516,
      "lon": 35.3159604
    },
    {
      "name": "משמר העמק",
      "area": "הצפון",
      "lat": 32.6105821,
      "lon": 35.1421972
    },
    {
      "name": "נוף הגליל",
      "area": "הצפון",
      "lat": 32.7023065,
      "lon": 35.3183216
    },
    {
      "name": "נחשולים",
      "area": "הצפון",
      "lat": 32.6138484,
      "lon": 34.92063
    },
    {
      "name": "נצרת",
      "area": "הצפון",
      "lat": 32.7046364,
      "lon": 35.2971854
    },
    {
      "name": "סח'נין",
      "area": "הצפון",
      "lat": 32.8638052,
      "lon": 35.3023184
    },
    {
      "name": "עין דור",
      "area": "הצפון",
      "lat": 32.6562519,
      "lon": 35.417043
    },
    {
      "name": "עין חרוד (מאוחד)",
      "area": "הצפון",
      "lat": 32.5587211,
      "lon": 35.3905752
    },
    {
      "name": "עפולה",
      "area": "הצפון",
      "lat": 32.6090718,
      "lon": 35.2856831
    },
    {
      "name": "פרדס חנה-כרכור",
      "area": "הצפון",
      "lat": 32.4749962,
      "lon": 34.975139
    },
    {
      "name": "צמח",
      "area": "הצפון",
      "lat": 31.9695837,
      "lon": 34.7947025
    },
    {
      "name": "צפת",
      "area": "הצפון",
      "lat": 32.9646301,
      "lon": 35.502451
    },
    {
      "name": "קיסריה",
      "area": "הצפון",
      "lat": 32.505968,
      "lon": 34.9062151
    },
    {
      "name": "קצרין",
      "area": "הצפון",
      "lat": 32.9920262,
      "lon": 35.6877004
    },
    {
      "name": "קריית אתא",
      "area": "הצפון",
      "lat": 32.8072678,
      "lon": 35.1171143
    },
    {
      "name": "קריית ים",
      "area": "הצפון",
      "lat": 32.8467455,
      "lon": 35.0701711
    },
    {
      "name": "ראש פינה",
      "area": "הצפון",
      "lat": 32.968215,
      "lon": 35.5438245
    },
    {
      "name": "רמות",
      "area": "הצפון",
      "lat": 31.81561,
      "lon": 35.1954938
    },
    {
      "name": "שדות ים",
      "area": "הצפון",
      "lat": 32.4921593,
      "lon": 34.8933053
    },
    {
      "name": "שלוחות",
      "area": "הצפון",
      "lat": 32.4718472,
      "lon": 35.4819367
    },
    {
      "name": "שמיר",
      "area": "הצפון",
      "lat": 33.163887,
      "lon": 35.6591721
    },
    {
      "name": "שער הגולן",
      "area": "הצפון",
      "lat": 32.6858143,
      "lon": 35.6042877
    },
    {
      "name": "שקד",
      "area": "הצפון",
      "lat": 31.2653242,
      "lon": 35.2202838
    },
    {
      "name": "אבן יהודה",
      "area": "המרכז",
      "lat": 31.7815371,
      "lon": 35.2179147
    },
    {
      "name": "אור יהודה",
      "area": "המרכז",
      "lat": 32.0270045,
      "lon": 34.8629898
    },
    {
      "name": "אורנית",
      "area": "המרכז",
      "lat": 32.7050952,
      "lon": 35.1637548
    },
    {
      "name": "אלעד",
      "area": "המרכז",
      "lat": 32.0500659,
      "lon": 34.9521522
    },
    {
      "name": "ארז",
      "area": "המרכז",
      "lat": 31.5605003,
      "lon": 34.5666313
    },
    {
      "name": "אריאל",
      "area": "המרכז",
      "lat": 31.7901047,
      "lon": 35.2032791
    },
    {
      "name": "בארות יצחק",
      "area": "המרכז",
      "lat": 32.0393656,
      "lon": 34.9109112
    },
    {
      "name": "בית אריה",
      "area": "המרכז",
      "lat": 31.9424747,
      "lon": 34.8755207
    },
    {
      "name": "בית גוברין",
      "area": "המרכז",
      "lat": 31.5979099,
      "lon": 34.8976497
    },
    {
      "name": "בית דגן",
      "area": "המרכז",
      "lat": 32.001945,
      "lon": 34.8301626
    },
    {
      "name": "בית רבן",
      "area": "המרכז",
      "lat": 31.8168499,
      "lon": 34.7281236
    },
    {
      "name": "בני ברק",
      "area": "המרכז",
      "lat": 32.0873899,
      "lon": 34.8324376
    },
    {
      "name": "בני עטרות",
      "area": "המרכז",
      "lat": 32.0235637,
      "lon": 34.9118719
    },
    {
      "name": "ברקן",
      "area": "המרכז",
      "lat": 32.1865278,
      "lon": 34.8968805
    },
    {
      "name": "גבעת השלושה",
      "area": "המרכז",
      "lat": 32.0980886,
      "lon": 34.9211469
    },
    {
      "name": "גבעת שמואל",
      "area": "המרכז",
      "lat": 32.076372,
      "lon": 34.8520142
    },
    {
      "name": "געתון",
      "area": "המרכז",
      "lat": 33.0057124,
      "lon": 35.2137501
    },
    {
      "name": "הוד השרון",
      "area": "המרכז",
      "lat": 32.1499496,
      "lon": 34.8851247
    },
    {
      "name": "יהוד",
      "area": "המרכז",
      "lat": 32.0330659,
      "lon": 34.887782
    },
    {
      "name": "יזרעאל",
      "area": "המרכז",
      "lat": 32.5623514,
      "lon": 35.32134
    },
    {
      "name": "כפר סבא",
      "area": "המרכז",
      "lat": 32.1802349,
      "lon": 34.9180542
    },
    {
      "name": "כפר קאסם",
      "area": "המרכז",
      "lat": 32.1147143,
      "lon": 34.9755998
    },
    {
      "name": "מעלה החמישה",
      "area": "המרכז",
      "lat": 31.8174857,
      "lon": 35.1115939
    },
    {
      "name": "נחשונים",
      "area": "המרכז",
      "lat": 32.0614545,
      "lon": 34.9492529
    },
    {
      "name": "נמל תעופה בן-גוריון",
      "area": "המרכז",
      "lat": 32.0004041,
      "lon": 34.8704796
    },
    {
      "name": "עינת",
      "area": "המרכז",
      "lat": 32.0827765,
      "lon": 34.9394305
    },
    {
      "name": "עלי",
      "area": "המרכז",
      "lat": 31.6552574,
      "lon": 34.5784492
    },
    {
      "name": "פתח תקווה",
      "area": "המרכז",
      "lat": 32.0877639,
      "lon": 34.8859985
    },
    {
      "name": "ראש העין",
      "area": "המרכז",
      "lat": 32.0952929,
      "lon": 34.9533225
    },
    {
      "name": "רמלה",
      "area": "המרכז",
      "lat": 31.9279988,
      "lon": 34.8623473
    },
    {
      "name": "רמת גן",
      "area": "המרכז",
      "lat": 32.0686867,
      "lon": 34.8246812
    },
    {
      "name": "רנתיה",
      "area": "המרכז",
      "lat": 32.043333,
      "lon": 34.931667
    },
    {
      "name": "שוהם",
      "area": "המרכז",
      "lat": 31.9968113,
      "lon": 34.9464444
    },
    {
      "name": "שפיים",
      "area": "המרכז",
      "lat": 32.2169192,
      "lon": 34.8248191
    },
    {
      "name": "תל השומר",
      "area": "המרכז",
      "lat": 32.0468815,
      "lon": 34.8447686
    },
    {
      "name": "אושה",
      "area": "המפרץ",
      "lat": 32.7955189,
      "lon": 35.1144019
    },
    {
      "name": "איילת השחר",
      "area": "המפרץ",
      "lat": 33.0215976,
      "lon": 35.5759521
    },
    {
      "name": "אילון",
      "area": "המפרץ",
      "lat": 33.0633456,
      "lon": 35.2197473
    },
    {
      "name": "אשרת",
      "area": "המפרץ",
      "lat": 32.9717328,
      "lon": 35.1564958
    },
    {
      "name": "בית זרע",
      "area": "המפרץ",
      "lat": 32.6882909,
      "lon": 35.5733669
    },
    {
      "name": "בית שאן",
      "area": "המפרץ",
      "lat": 32.4967519,
      "lon": 35.4973022
    },
    {
      "name": "בצת",
      "area": "המפרץ",
      "lat": 33.0710991,
      "lon": 35.1351406
    },
    {
      "name": "גבע",
      "area": "המפרץ",
      "lat": 32.5663362,
      "lon": 35.3715486
    },
    {
      "name": "גן יבנה",
      "area": "המפרץ",
      "lat": 31.787109,
      "lon": 34.7096635
    },
    {
      "name": "הגושרים",
      "area": "המפרץ",
      "lat": 33.2211258,
      "lon": 35.6230745
    },
    {
      "name": "חולתה",
      "area": "המפרץ",
      "lat": 33.0511117,
      "lon": 35.6091616
    },
    {
      "name": "חיפה",
      "area": "המפרץ",
      "lat": 32.8191218,
      "lon": 34.9983856
    },
    {
      "name": "טירת כרמל",
      "area": "המפרץ",
      "lat": 32.7613834,
      "lon": 34.9715506
    },
    {
      "name": "יפתח",
      "area": "המפרץ",
      "lat": 33.1286135,
      "lon": 35.5519473
    },
    {
      "name": "יראון",
      "area": "המפרץ",
      "lat": 33.0777838,
      "lon": 35.455753
    },
    {
      "name": "ירכא",
      "area": "המפרץ",
      "lat": 32.9548871,
      "lon": 35.2087895
    },
    {
      "name": "כפר בלום",
      "area": "המפרץ",
      "lat": 33.1723656,
      "lon": 35.6101218
    },
    {
      "name": "כפר ברוך",
      "area": "המפרץ",
      "lat": 32.6460182,
      "lon": 35.1930067
    },
    {
      "name": "כפר גלעדי",
      "area": "המפרץ",
      "lat": 33.2417843,
      "lon": 35.5749608
    },
    {
      "name": "כפר יאסיף",
      "area": "המפרץ",
      "lat": 32.9533067,
      "lon": 35.165698
    },
    {
      "name": "כרמיאל",
      "area": "המפרץ",
      "lat": 32.9159104,
      "lon": 35.293429
    },
    {
      "name": "לוחמי הגיטאות",
      "area": "המפרץ",
      "lat": 32.0372187,
      "lon": 34.8960147
    },
    {
      "name": "מגדים",
      "area": "המפרץ",
      "lat": 32.7289514,
      "lon": 34.9625981
    },
    {
      "name": "מגדל העמק",
      "area": "המפרץ",
      "lat": 32.6765744,
      "lon": 35.2413237
    },
    {
      "name": "מגדל תפן",
      "area": "המפרץ",
      "lat": 32.9753916,
      "lon": 35.2770876
    },
    {
      "name": "מירון",
      "area": "המפרץ",
      "lat": 32.9886409,
      "lon": 35.440278
    },
    {
      "name": "מעונה",
      "area": "המפרץ",
      "lat": 33.0167071,
      "lon": 35.2597388
    },
    {
      "name": "מעלות-תרשיחא",
      "area": "המפרץ",
      "lat": 33.0145083,
      "lon": 35.2848195
    },
    {
      "name": "מצובה",
      "area": "המפרץ",
      "lat": 33.0629442,
      "lon": 35.1570974
    },
    {
      "name": "מרום גולן",
      "area": "המפרץ",
      "lat": 33.1321192,
      "lon": 35.7773161
    },
    {
      "name": "משגב",
      "area": "המפרץ",
      "lat": 32.9197101,
      "lon": 35.2947301
    },
    {
      "name": "נאות מרדכי",
      "area": "המפרץ",
      "lat": 33.160576,
      "lon": 35.5965774
    },
    {
      "name": "נהרייה",
      "area": "המפרץ",
      "lat": 33.0148724,
      "lon": 35.1016842
    },
    {
      "name": "נשר",
      "area": "המפרץ",
      "lat": 32.7708797,
      "lon": 35.0381249
    },
    {
      "name": "סאסא",
      "area": "המפרץ",
      "lat": 33.026907,
      "lon": 35.39499
    },
    {
      "name": "עכו",
      "area": "המפרץ",
      "lat": 32.9281731,
      "lon": 35.0756378
    },
    {
      "name": "קריית מוצקין",
      "area": "המפרץ",
      "lat": 32.8390532,
      "lon": 35.0803893
    },
    {
      "name": "קריית שמונה",
      "area": "המפרץ",
      "lat": 33.2121315,
      "lon": 35.5715923
    },
    {
      "name": "קרית ביאליק",
      "area": "המפרץ",
      "lat": 32.8285812,
      "lon": 35.0844915
    },
    {
      "name": "קרית חיים",
      "area": "המפרץ",
      "lat": 32.8297849,
      "lon": 35.0636587
    },
    {
      "name": "רגבה",
      "area": "המפרץ",
      "lat": 32.9779642,
      "lon": 35.0996706
    },
    {
      "name": "רכסים",
      "area": "המפרץ",
      "lat": 32.7509558,
      "lon": 35.1013589
    },
    {
      "name": "רמת יוחנן",
      "area": "המפרץ",
      "lat": 32.7925038,
      "lon": 35.1213847
    },
    {
      "name": "שלומי",
      "area": "המפרץ",
      "lat": 33.0760504,
      "lon": 35.1485842
    },
    {
      "name": "שפרעם",
      "area": "המפרץ",
      "lat": 32.8045765,
      "lon": 35.1723866
    },
    {
      "name": "תפן",
      "area": "המפרץ",
      "lat": 32.0013059,
      "lon": 34.9443323
    },
    {
      "name": "אחיסמך",
      "area": "הדרום",
      "lat": 31.935556,
      "lon": 34.908056
    },
    {
      "name": "אלונים",
      "area": "הדרום",
      "lat": 32.7199093,
      "lon": 35.1446939
    },
    {
      "name": "בית חלקיה",
      "area": "הדרום",
      "lat": 31.7926752,
      "lon": 34.8108048
    },
    {
      "name": "בית קמה",
      "area": "הדרום",
      "lat": 31.4475406,
      "lon": 34.7622872
    },
    {
      "name": "בני דרור",
      "area": "הדרום",
      "lat": 32.2618622,
      "lon": 34.900238
    },
    {
      "name": "גבעת ברנר",
      "area": "הדרום",
      "lat": 31.8675206,
      "lon": 34.8004909
    },
    {
      "name": "גדרה",
      "area": "הדרום",
      "lat": 31.8117747,
      "lon": 34.7803882
    },
    {
      "name": "חולדה",
      "area": "הדרום",
      "lat": 31.8311138,
      "lon": 34.8828125
    },
    {
      "name": "חצב",
      "area": "הדרום",
      "lat": 31.7792702,
      "lon": 34.7693634
    },
    {
      "name": "יבנה",
      "area": "הדרום",
      "lat": 31.8768863,
      "lon": 34.7382974
    },
    {
      "name": "ישרש",
      "area": "הדרום",
      "lat": 31.915785,
      "lon": 34.8499267
    },
    {
      "name": "כפר עזה",
      "area": "הדרום",
      "lat": 31.4833351,
      "lon": 34.5333225
    },
    {
      "name": "מודיעין-מכבים-רעות",
      "area": "הדרום",
      "lat": 31.8952781,
      "lon": 34.9892311
    },
    {
      "name": "מצליח",
      "area": "הדרום",
      "lat": 31.9061802,
      "lon": 34.8717789
    },
    {
      "name": "נגבה",
      "area": "הדרום",
      "lat": 31.6623288,
      "lon": 34.6827493
    },
    {
      "name": "נס ציונה",
      "area": "הדרום",
      "lat": 31.93101,
      "lon": 34.7992014
    },
    {
      "name": "סער",
      "area": "הדרום",
      "lat": 33.0293646,
      "lon": 35.1093238
    },
    {
      "name": "קבוצת יבנה",
      "area": "הדרום",
      "lat": 31.8138222,
      "lon": 34.7190625
    },
    {
      "name": "רחובות",
      "area": "הדרום",
      "lat": 31.8952532,
      "lon": 34.8105616
    },
    {
      "name": "שילת",
      "area": "הדרום",
      "lat": 31.9205606,
      "lon": 35.0173195
    },
    {
      "name": "בית גמליאל",
      "area": "הדרום",
      "lat": 31.8582123,
      "lon": 34.7639246
    },
    {
      "name": "אופקים",
      "area": "אשדוד",
      "lat": 31.3125831,
      "lon": 34.6208537
    },
    {
      "name": "אור הנר",
      "area": "אשדוד",
      "lat": 31.5575591,
      "lon": 34.6000531
    },
    {
      "name": "אילות",
      "area": "אשדוד",
      "lat": 29.5812438,
      "lon": 34.962663
    },
    {
      "name": "אילת",
      "area": "אשדוד",
      "lat": 29.5569348,
      "lon": 34.9497949
    },
    {
      "name": "אירוס",
      "area": "אשדוד",
      "lat": 31.928452,
      "lon": 34.7759097
    },
    {
      "name": "אשדוד",
      "area": "אשדוד",
      "lat": 31.7957411,
      "lon": 34.6488659
    },
    {
      "name": "אשקלון",
      "area": "אשדוד",
      "lat": 31.6653191,
      "lon": 34.565044
    },
    {
      "name": "באר טוביה",
      "area": "אשדוד",
      "lat": 31.7338758,
      "lon": 34.7262903
    },
    {
      "name": "באר יעקב",
      "area": "אשדוד",
      "lat": 31.9443532,
      "lon": 34.8398648
    },
    {
      "name": "באר שבע",
      "area": "אשדוד",
      "lat": 31.2457442,
      "lon": 34.7925181
    },
    {
      "name": "בית חנן",
      "area": "אשדוד",
      "lat": 31.9337581,
      "lon": 34.7740084
    },
    {
      "name": "בני דרום",
      "area": "אשדוד",
      "lat": 31.8206628,
      "lon": 34.6915762
    },
    {
      "name": "בני עיש\"",
      "area": "אשדוד",
      "lat": 31.9552983,
      "lon": 34.8052625
    },
    {
      "name": "ברוש",
      "area": "אשדוד",
      "lat": 31.3706542,
      "lon": 34.6350858
    },
    {
      "name": "גבעתי",
      "area": "אשדוד",
      "lat": 31.7340046,
      "lon": 34.6793054
    },
    {
      "name": "גרופית",
      "area": "אשדוד",
      "lat": 29.941716,
      "lon": 35.0642049
    },
    {
      "name": "דבירה",
      "area": "אשדוד",
      "lat": 31.4134736,
      "lon": 34.8232634
    },
    {
      "name": "דימונה",
      "area": "אשדוד",
      "lat": 31.0686612,
      "lon": 35.0366482
    },
    {
      "name": "חלץ",
      "area": "אשדוד",
      "lat": 31.5774293,
      "lon": 34.6575334
    },
    {
      "name": "חמדיה",
      "area": "אשדוד",
      "lat": 32.5201037,
      "lon": 35.5203765
    },
    {
      "name": "חצור-אשדוד",
      "area": "אשדוד",
      "lat": 31.7730925,
      "lon": 34.7210185
    },
    {
      "name": "חצרים",
      "area": "אשדוד",
      "lat": 31.24041,
      "lon": 34.7150744
    },
    {
      "name": "יטבתה",
      "area": "אשדוד",
      "lat": 29.8962318,
      "lon": 35.0600524
    },
    {
      "name": "ינון",
      "area": "אשדוד",
      "lat": 31.7429158,
      "lon": 34.7795177
    },
    {
      "name": "ירוחם",
      "area": "אשדוד",
      "lat": 30.9888033,
      "lon": 34.9250975
    },
    {
      "name": "כנות",
      "area": "אשדוד",
      "lat": 31.8026404,
      "lon": 34.752375
    },
    {
      "name": "כפר חבד\"",
      "area": "אשדוד",
      "lat": 31.9929588,
      "lon": 34.8532197
    },
    {
      "name": "כפר מנחם",
      "area": "אשדוד",
      "lat": 31.7309768,
      "lon": 34.8352311
    },
    {
      "name": "לבון",
      "area": "אשדוד",
      "lat": 32.9424551,
      "lon": 35.2871026
    },
    {
      "name": "להב",
      "area": "אשדוד",
      "lat": 31.3794212,
      "lon": 34.8701057
    },
    {
      "name": "לוד",
      "area": "אשדוד",
      "lat": 31.9489012,
      "lon": 34.8884857
    },
    {
      "name": "לכיש",
      "area": "אשדוד",
      "lat": 31.5608984,
      "lon": 34.8410694
    },
    {
      "name": "מסמיה",
      "area": "אשדוד",
      "lat": 31.75991,
      "lon": 34.7840643
    },
    {
      "name": "משאבי שדה",
      "area": "אשדוד",
      "lat": 31.0032681,
      "lon": 34.7861244
    },
    {
      "name": "משואות יצחק",
      "area": "אשדוד",
      "lat": 31.7023455,
      "lon": 34.6898673
    },
    {
      "name": "משמר הנגב",
      "area": "אשדוד",
      "lat": 31.3641285,
      "lon": 34.7186798
    },
    {
      "name": "ניצנים",
      "area": "אשדוד",
      "lat": 31.7168321,
      "lon": 34.634187
    },
    {
      "name": "ניר עקיבא",
      "area": "אשדוד",
      "lat": 31.4695439,
      "lon": 34.64547
    },
    {
      "name": "נתיבות",
      "area": "אשדוד",
      "lat": 31.4213546,
      "lon": 34.5884252
    },
    {
      "name": "סמר",
      "area": "אשדוד",
      "lat": 29.8333743,
      "lon": 35.022744
    },
    {
      "name": "סעד",
      "area": "אשדוד",
      "lat": 31.4702282,
      "lon": 34.5321814
    },
    {
      "name": "עומר",
      "area": "אשדוד",
      "lat": 31.2659365,
      "lon": 34.847616
    },
    {
      "name": "עין בוקק",
      "area": "אשדוד",
      "lat": 31.2013827,
      "lon": 35.3638836
    },
    {
      "name": "עין הבשור",
      "area": "אשדוד",
      "lat": 31.280566,
      "lon": 34.4437627
    },
    {
      "name": "עין יהב",
      "area": "אשדוד",
      "lat": 30.6569021,
      "lon": 35.2381753
    },
    {
      "name": "עלומים",
      "area": "אשדוד",
      "lat": 31.4521295,
      "lon": 34.5137154
    },
    {
      "name": "עמיעוז",
      "area": "אשדוד",
      "lat": 31.24831,
      "lon": 34.4139745
    },
    {
      "name": "פלמחים",
      "area": "אשדוד",
      "lat": 31.9334124,
      "lon": 34.7072589
    },
    {
      "name": "פרי גן",
      "area": "אשדוד",
      "lat": 31.2228545,
      "lon": 34.3528747
    },
    {
      "name": "צאלים",
      "area": "אשדוד",
      "lat": 31.2036632,
      "lon": 34.5338387
    },
    {
      "name": "צוחר",
      "area": "אשדוד",
      "lat": 31.2360988,
      "lon": 34.4270729
    },
    {
      "name": "קטורה",
      "area": "אשדוד",
      "lat": 29.9696388,
      "lon": 35.0610494
    },
    {
      "name": "קרית גת",
      "area": "אשדוד",
      "lat": 31.6093998,
      "lon": 34.7711983
    },
    {
      "name": "רעים",
      "area": "אשדוד",
      "lat": 31.3848038,
      "lon": 34.4585901
    },
    {
      "name": "שדרות",
      "area": "אשדוד",
      "lat": 31.5312634,
      "lon": 34.5942807
    },
    {
      "name": "שחר",
      "area": "אשדוד",
      "lat": 31.6184063,
      "lon": 34.7240639
    },
    {
      "name": "שער הנגב",
      "area": "אשדוד",
      "lat": 31.516709,
      "lon": 34.6633761
    },
    {
      "name": "שרשרת",
      "area": "אשדוד",
      "lat": 31.4046369,
      "lon": 34.6041162
    },
    {
      "name": "תימורים",
      "area": "אשדוד",
      "lat": 31.7160922,
      "lon": 34.7613397
    },
    {
      "name": "תל שבע",
      "area": "אשדוד",
      "lat": 31.2456487,
      "lon": 34.8577683
    }
  ],
  "failed": [
    "בן שמן מושב",
    "אלון מורה",
    "אלון שבות",
    "כפר אדומים",
    "קריית ארבע",
    "אלפי מנשה",
    "כנרת (קבוצה)",
    "ניר דוד (תל עמל)",
    "כפר הירוק",
    "מודיעין עילית",
    "פארק תעשיות חבל מודי"
  ]
}